display_na,external_i,latitude,location,longitude,name,slug,sqmi,type,QtyOfLocat,Number of delivery stops_sum,Number of delivery stops_mean,Number of packages_sum,Number of packages_mean,Number of delivered packages_sum,Number of delivered packages_mean,Number of rejected packages_sum,Number of rejected packages_mean,Number of failed attempted packages_sum,Number of failed attempted packages_mean,Total Euclidean distance (km)_sum,Total Euclidean distance (km)_mean,Total Driving distance (km)_sum,Total Driving distance (km)_mean,Avg Circuity factor per stop_sum,Avg Circuity factor per stop_mean,percentage_failed_att
Boyle Heights L.A. County Neighborhood (Current),boyle-heights,-118.2107875,POINT(34.039168499124116 -118.21078750000007),34.0391685,Boyle Heights,boyle-heights,6.519005309,segment-of-a-city,987,953,119.125,1623,202.875,1595,199.375,0,0,28,3.5,264.375646,33.046956,381.556,47.6945,11.117848,1.389731,1.755485893
Granada Hills L.A. County Neighborhood (Current),granada-hills,-118.5076705,POINT(34.295682651151957 -118.50767050010745),34.29568265,Granada Hills,granada-hills,15.11143206,segment-of-a-city,1049,1143,163.285714,1643,234.714286,1635,233.571429,1,0.142857,7,1,339.040604,48.434372,487.691,69.670143,10.083367,1.440481,0.428134557
Mid-City L.A. County Neighborhood (Current),mid-city,-118.3588095,POINT(34.041107499124067 -118.35880950000006),34.0411075,Mid-City,mid-city,3.46810948,segment-of-a-city,1410,1258,139.777778,2285,253.888889,2255,250.555556,0,0,30,3.333333,446.272782,49.585865,562.985,62.553889,12.620924,1.402325,1.33037694
Mid-Wilshire L.A. County Neighborhood (Current),mid-wilshire,-118.3431095,POINT(34.059609499123724 -118.3431095),34.0596095,Mid-Wilshire,mid-wilshire,2.781168985,segment-of-a-city,875,934,103.777778,2092,232.444444,2054,228.222222,0,0,38,4.222222,396.495786,44.055087,488.371,54.263444,17.638066,1.959785,1.850048685
East La Mirada L.A. County Neighborhood (Current),east-la-mirada,-117.990762,POINT(33.924510501549975 -117.9907619882008),33.9245105,East La Mirada,east-la-mirada,1.110065245,unincorporated-area,402,517,172.333333,719,239.666667,709,236.333333,0,0,10,3.333333,258.460184,86.153395,357.74,119.246667,4.830585,1.610195,1.410437236
La Mirada L.A. County Neighborhood (Current),la-mirada,-118.007221,POINT(33.900793500197707 -118.00722099646512),33.9007935,La Mirada,la-mirada,7.841249794,standalone-city,5548,6078,155.846154,8951,229.512821,8905,228.333333,0,0,46,1.179487,3548.140166,90.977953,4952.568,126.988923,58.437515,1.498398,0.516563728
Glendora L.A. County Neighborhood (Current),glendora,-117.8417845,POINT(34.142040999122969 -117.84178450000023),34.142041,Glendora,glendora,19.54134036,standalone-city,7645,7792,147.018868,12284,231.773585,12241,230.962264,0,0,43,0.811321,4220.955717,79.640674,5454.11,102.907736,80.809956,1.524716,0.35127849
La Verne L.A. County Neighborhood (Current),la-verne,-117.774525,POINT(34.124883999123185 -117.7745250000001),34.124884,La Verne,la-verne,8.572950189,standalone-city,4748,4630,159.655172,6821,235.206897,6780,233.793103,0,0,41,1.413793,2016.639663,69.539299,2893.243,99.767,47.162271,1.626285,0.604719764
San Dimas L.A. County Neighborhood (Current),san-dimas,-117.8132685,POINT(34.115259499123212 -117.81326850000013),34.1152595,San Dimas,san-dimas,15.62820379,standalone-city,2699,2931,146.55,4405,220.25,4367,218.35,0,0,38,1.9,1441.234394,72.06172,1960.602,98.0301,35.832564,1.791628,0.870162583
Pacific Palisades L.A. County Neighborhood (Current),pacific-palisades,-118.545859,POINT(34.078366733694963 -118.54585899824386),34.07836673,Pacific Palisades,pacific-palisades,22.83760138,segment-of-a-city,1272,1403,127.545455,2998,272.545455,2971,270.090909,0,0,27,2.454545,719.377248,65.397932,964.79,87.708182,15.192866,1.38117,0.908784921
Claremont L.A. County Neighborhood (Current),claremont,-117.7187695,POINT(34.122365138512784 -117.71876950000001),34.12236514,Claremont,claremont,16.66168657,standalone-city,2996,3028,151.4,4629,231.45,4601,230.05,0,0,28,1.4,1313.314347,65.665717,1871.058,93.5529,31.490491,1.574525,0.608563356
Ladera Heights L.A. County Neighborhood (Current),ladera-heights,-118.3741075,POINT(33.996097001972416 -118.37410748609757),33.996097,Ladera Heights,ladera-heights,2.939737636,unincorporated-area,6,,,,,,,,,,,,,,,,,
Westchester L.A. County Neighborhood (Current),westchester,-118.3982926,POINT(33.95599525987285 -118.39829259016352),33.95599526,Westchester,westchester,10.80921171,segment-of-a-city,667,753,107.571429,1672,238.857143,1652,236,0,0,20,2.857143,234.712582,33.530369,329.612,47.087429,11.438663,1.634095,1.210653753
Inglewood L.A. County Neighborhood (Current),inglewood,-118.3461175,POINT(33.954067500238899 -118.34611749302944),33.9540675,Inglewood,inglewood,9.122682999,standalone-city,879,773,154.6,1161,232.2,1151,230.2,0,0,10,2,173.999068,34.799814,268.949,53.7898,8.898907,1.779781,0.868809731
Pico-Robertson L.A. County Neighborhood (Current),pico-robertson,-118.3913255,POINT(34.05373199912394 -118.39132550000005),34.053732,Pico-Robertson,pico-robertson,1.031556447,segment-of-a-city,474,212,106,472,236,462,231,0,0,10,5,87.912137,43.956068,110.06,55.03,2.488184,1.244092,2.164502165
Cerritos L.A. County Neighborhood (Current),cerritos,-118.0686375,POINT(33.86689249912628 -118.06863750000007),33.8668925,Cerritos,cerritos,8.858255458,standalone-city,2445,2219,170.692308,3486,268.153846,3459,266.076923,0,0,27,2.076923,1002.651323,77.127025,1356.865,104.374231,19.548852,1.503758,0.78057242
Lakewood L.A. County Neighborhood (Current),lakewood,-118.113051,POINT(33.844692999126622 -118.11305100000018),33.844693,Lakewood,lakewood,9.512487009,standalone-city,975,1129,161.285714,1757,251,1725,246.428571,0,0,32,4.571429,494.849083,70.692726,691.231,98.747286,10.548989,1.506998,1.855072464
Bellflower L.A. County Neighborhood (Current),bellflower,-118.1290315,POINT(33.88801349912606 -118.12903150000017),33.8880135,Bellflower,bellflower,6.195311624,standalone-city,1913,1937,149,3123,240.230769,3052,234.769231,0,0,71,5.461538,815.739983,62.749229,1073.289,82.560692,19.590227,1.506941,2.326343381
Gardena L.A. County Neighborhood (Current),gardena,-118.308627,POINT(33.891005999125994 -118.30862700000014),33.891006,Gardena,gardena,5.843891847,standalone-city,174,,,,,,,,,,,,,,,,,
South Park L.A. County Neighborhood (Current),south-park,-118.268757,POINT(33.996463999124586 -118.26875699999999),33.996464,South Park,south-park,1.409351761,segment-of-a-city,177,135,135,197,197,196,196,0,0,1,1,48.147545,48.147545,66.361,66.361,1.370834,1.370834,0.510204082
Central-Alameda L.A. County Neighborhood (Current),central-alameda,-118.2472125,POINT(34.006864031207506 -118.24721250000012),34.00686403,Central-Alameda,central-alameda,2.182694848,segment-of-a-city,332,285,142.5,433,216.5,429,214.5,0,0,4,2,93.563982,46.781991,132.004,66.002,2.766192,1.383096,0.932400932
Porter Ranch L.A. County Neighborhood (Current),porter-ranch,-118.5487295,POINT(34.278216499201754 -118.54872950000006),34.2782165,Porter Ranch,porter-ranch,5.586169659,segment-of-a-city,704,747,186.75,1055,263.75,1052,263,0,0,3,0.75,174.196463,43.549116,251.027,62.75675,5.821925,1.455481,0.285171103
Citrus L.A. County Neighborhood (Current),citrus,-117.892164,POINT(34.11618000242531 -117.89216399278311),34.11618,Citrus,citrus,1.011550851,unincorporated-area,13,,,,,,,,,,,,,,,,,
Lynwood L.A. County Neighborhood (Current),lynwood,-118.2028265,POINT(33.925213499125533 -118.20282648482208),33.9252135,Lynwood,lynwood,4.900226983,standalone-city,421,544,181.333333,790,263.333333,775,258.333333,0,0,15,5,163.144085,54.381362,220.036,73.345333,4.337508,1.445836,1.935483871
Bell L.A. County Neighborhood (Current),bell,-118.179166,POINT(33.981160999124889 -118.17916600000018),33.981161,Bell,bell,2.554028842,standalone-city,399,624,156,909,227.25,905,226.25,0,0,4,1,139.056311,34.764078,199.057,49.76425,5.714807,1.428702,0.44198895
Cudahy L.A. County Neighborhood (Current),cudahy,-118.1855725,POINT(33.962620499125038 -118.18557250000019),33.9626205,Cudahy,cudahy,1.229035538,standalone-city,22,,,,,,,,,,,,,,,,,
Covina L.A. County Neighborhood (Current),covina,-117.883922,POINT(34.087495499309327 -117.88392199287892),34.0874955,Covina,covina,7.6040265,standalone-city,5,,,,,,,,,,,,,,,,,
Paramount L.A. County Neighborhood (Current),paramount,-118.1653905,POINT(33.899154499125913 -118.16539050000017),33.8991545,Paramount,paramount,4.854627177,standalone-city,379,637,159.25,939,234.75,925,231.25,0,0,14,3.5,225.086111,56.271528,326.882,81.7205,7.211458,1.802864,1.513513514
Hancock Park L.A. County Neighborhood (Current),hancock-park,-118.3350095,POINT(34.072759499123613 -118.3350095),34.0727595,Hancock Park,hancock-park,1.517979557,segment-of-a-city,328,329,109.666667,688,229.333333,683,227.666667,0,0,5,1.666667,154.425792,51.475264,192.892,64.297333,3.745919,1.24864,0.732064422
Hyde Park L.A. County Neighborhood (Current),hyde-park,-118.3377585,POINT(33.985430999124816 -118.33775850000006),33.985431,Hyde Park,hyde-park,2.884646416,segment-of-a-city,350,495,165,775,258.333333,771,257,0,0,4,1.333333,122.813835,40.937945,164.898,54.966,4.448487,1.482829,0.518806744
Westmont L.A. County Neighborhood (Current),westmont,-118.304639,POINT(33.945207502436951 -118.30463897559736),33.9452075,Westmont,westmont,1.843815835,unincorporated-area,185,,,,,,,,,,,,,,,,,
Gramercy Park L.A. County Neighborhood (Current),gramercy-park,-118.308984,POINT(33.949062001923494 -118.30898400000005),33.949062,Gramercy Park,gramercy-park,1.134038823,segment-of-a-city,384,545,181.666667,823,274.333333,819,273,0,0,4,1.333333,114.678487,38.226162,226.682,75.560667,5.642268,1.880756,0.488400488
East Compton L.A. County Neighborhood (Current),east-compton,-118.195989,POINT(33.894016822529835 -118.19598900000028),33.89401682,East Compton,east-compton,0.834359226,unincorporated-area,163,,,,,,,,,,,,,,,,,
Alondra Park L.A. County Neighborhood (Current),alondra-park,-118.335156,POINT(33.889617004889644 -118.33515598608159),33.889617,Alondra Park,alondra-park,1.139894231,unincorporated-area,4,,,,,,,,,,,,,,,,,
Florence-Firestone L.A. County Neighborhood (Current),florence-firestone,-118.2419205,POINT(33.966101520272787 -118.24192048907494),33.96610152,Florence-Firestone,florence-firestone,3.579486017,unincorporated-area,894,1074,153.428571,1644,234.857143,1637,233.857143,0,0,7,1,327.862007,46.83743,455.848,65.121143,9.788979,1.398426,0.427611484
Walnut Park L.A. County Neighborhood (Current),walnut-park,-118.2205115,POINT(33.966981503722153 -118.22051147887569),33.9669815,Walnut Park,walnut-park,0.734515844,unincorporated-area,714,1299,162.375,1979,247.375,1960,245,1,0.125,18,2.25,354.54877,44.318596,495.57,61.94625,11.105587,1.388198,0.918367347
Calabasas L.A. County Neighborhood (Current),calabasas,-118.6716317,POINT(34.136254499122948 -118.67163173539396),34.1362545,Calabasas,calabasas,18.54261351,standalone-city,1107,1287,128.7,2084,208.4,2074,207.4,0,0,10,1,481.018123,48.101812,704.181,70.4181,15.72196,1.572196,0.482160077
Hidden Hills L.A. County Neighborhood (Current),hidden-hills,-118.657056,POINT(34.16405683610931 -118.65705600000015),34.16405684,Hidden Hills,hidden-hills,1.703973149,standalone-city,21,,,,,,,,,,,,,,,,,
Larchmont L.A. County Neighborhood (Current),larchmont,-118.317809,POINT(34.079959499123596 -118.317809),34.0799595,Larchmont,larchmont,0.486332165,segment-of-a-city,303,450,90,979,195.8,948,189.6,0,0,31,6.2,232.681359,46.536272,290.386,58.0772,6.275405,1.255081,3.270042194
Artesia L.A. County Neighborhood (Current),artesia,-118.080101,POINT(33.866895999126271 -118.08010100000017),33.866896,Artesia,artesia,1.632204177,standalone-city,273,275,137.5,456,228,439,219.5,0,0,17,8.5,144.874912,72.437456,205.961,102.9805,3.386189,1.693095,3.872437358
Adams-Normandie L.A. County Neighborhood (Current),adams-normandie,-118.300208,POINT(34.031461499124156 -118.30020800000011),34.0314615,Adams-Normandie,adams-normandie,0.805350188,segment-of-a-city,297,486,121.5,907,226.75,871,217.75,0,0,36,9,179.177442,44.79436,234.317,58.57925,5.280463,1.320116,4.133180253
Bel-Air L.A. County Neighborhood (Current),bel-air,-118.4584155,POINT(34.102056999123342 -118.45841550000007),34.102057,Bel-Air,bel-air,6.373321431,segment-of-a-city,913,1196,119.6,2199,219.9,2157,215.7,0,0,42,4.2,775.709821,77.570982,1022.768,102.2768,14.815442,1.481544,1.947148818
Rolling Hills L.A. County Neighborhood (Current),rolling-hills,-118.3481265,POINT(33.762682999127549 -118.34812650000021),33.762683,Rolling Hills,rolling-hills,3.602126313,standalone-city,111,,,,,,,,,,,,,,,,,
North Hills L.A. County Neighborhood (Current),north-hills,-118.477117,POINT(34.238702499121729 -118.47711700000006),34.2387025,North Hills,north-hills,5.308118012,segment-of-a-city,579,518,172.666667,779,259.666667,778,259.333333,0,0,1,0.333333,151.710796,50.570265,196.244,65.414667,4.227844,1.409281,0.128534704
Mission Hills L.A. County Neighborhood (Current),mission-hills,-118.4571625,POINT(34.271661499121265 -118.45716250000007),34.2716615,Mission Hills,mission-hills,3.187497589,segment-of-a-city,247,144,144,215,215,209,209,0,0,6,6,53.264506,53.264506,73.189,73.189,1.436898,1.436898,2.870813397
Florence L.A. County Neighborhood (Current),florence,-118.2686065,POINT(33.974564000774492 -118.26860650000008),33.974564,Florence,florence,2.797678853,segment-of-a-city,294,253,126.5,367,183.5,353,176.5,0,0,14,7,94.570113,47.285057,134.428,67.214,3.015424,1.507712,3.966005666
Green Meadows L.A. County Neighborhood (Current),green-meadows,-118.26149,POINT(33.941634094823527 -118.26148999301319),33.94163409,Green Meadows,green-meadows,2.219852493,segment-of-a-city,113,,,,,,,,,,,,,,,,,
Watts L.A. County Neighborhood (Current),watts,-118.2399365,POINT(33.941619001308609 -118.2399365),33.941619,Watts,watts,2.122397318,segment-of-a-city,125,,,,,,,,,,,,,,,,,
Lawndale L.A. County Neighborhood (Current),lawndale,-118.3564765,POINT(33.887710499125994 -118.3564764903399),33.8877105,Lawndale,lawndale,1.968465235,standalone-city,203,,,,,,,,,,,,,,,,,
Marina del Rey L.A. County Neighborhood (Current),marina-del-rey,-118.4478695,POINT(33.975323504268417 -118.44786948141424),33.9753235,Marina del Rey,marina-del-rey,1.454771686,unincorporated-area,13,,,,,,,,,,,,,,,,,
Vermont Knolls L.A. County Neighborhood (Current),vermont-knolls,-118.290507,POINT(33.967009999124997 -118.29050700000013),33.96701,Vermont Knolls,vermont-knolls,1.141708822,segment-of-a-city,13,,,,,,,,,,,,,,,,,
Lake View Terrace L.A. County Neighborhood (Current),lake-view-terrace,-118.3618685,POINT(34.28376149912124 -118.3618685),34.2837615,Lake View Terrace,lake-view-terrace,4.231046636,segment-of-a-city,1,,,,,,,,,,,,,,,,,
Lopez Kagel Canyons L.A. County Neighborhood (Current),lopezkagel-canyons,-118.3855585,POINT(34.300821499121156 -118.38555850000017),34.3008215,Lopez/Kagel Canyons,lopezkagel-canyons,3.574419413,unincorporated-area,7,,,,,,,,,,,,,,,,,
El Sereno L.A. County Neighborhood (Current),el-sereno,-118.1762975,POINT(34.082242183204471 -118.1762975),34.08224218,El Sereno,el-sereno,4.167778899,segment-of-a-city,2,,,,,,,,,,,,,,,,,
Topanga L.A. County Neighborhood (Current),topanga,-118.6084202,POINT(34.092639152756504 -118.60842021657524),34.09263915,Topanga,topanga,19.23796825,unincorporated-area,5,,,,,,,,,,,,,,,,,
Playa del Rey L.A. County Neighborhood (Current),playa-del-rey,-118.4413395,POINT(33.945661530783255 -118.44133951162496),33.94566153,Playa del Rey,playa-del-rey,2.754293106,segment-of-a-city,117,99,99,235,235,231,231,0,0,4,4,35.628284,35.628284,47.029,47.029,1.471188,1.471188,1.731601732
Del Aire L.A. County Neighborhood (Current),del-aire,-118.369832,POINT(33.915552004076844 -118.36983198490955),33.915552,Del Aire,del-aire,0.989829124,unincorporated-area,69,134,134,241,241,235,235,0,0,6,6,28.859627,28.859627,43.899,43.899,1.693129,1.693129,2.553191489
Charter Oak L.A. County Neighborhood (Current),charter-oak,-117.85752,POINT(34.100075003109005 -117.85751998453503),34.100075,Charter Oak,charter-oak,0.921541249,unincorporated-area,11,154,154,229,229,229,229,0,0,0,0,78.315868,78.315868,108.582,108.582,1.798045,1.798045,0
Burbank L.A. County Neighborhood (Current),burbank,-118.325211,POINT(34.182010499122441 -118.32521100000017),34.1820105,Burbank,burbank,17.34184248,standalone-city,10,,,,,,,,,,,,,,,,,
Pacoima L.A. County Neighborhood (Current),pacoima,-118.4189085,POINT(34.26360659127154 -118.41890850000007),34.26360659,Pacoima,pacoima,7.137553957,segment-of-a-city,429,512,170.666667,688,229.333333,684,228,0,0,4,1.333333,197.74412,65.914707,276.53,92.176667,4.247068,1.415689,0.584795322
Vermont Vista L.A. County Neighborhood (Current),vermont-vista,-118.285451,POINT(33.941708042365043 -118.28545100000014),33.94170804,Vermont Vista,vermont-vista,1.645532615,segment-of-a-city,28,,,,,,,,,,,,,,,,,
Broadway-Manchester L.A. County Neighborhood (Current),broadway-manchester,-118.2753515,POINT(33.941223502886629 -118.27535153247453),33.9412235,Broadway-Manchester,broadway-manchester,1.558485825,segment-of-a-city,100,129,129,198,198,193,193,0,0,5,5,48.892904,48.892904,70.975,70.975,1.556886,1.556886,2.590673575
Century City L.A. County Neighborhood (Current),century-city,-118.415083,POINT(34.055325502171065 -118.41508300000005),34.0553255,Century City,century-city,0.700611363,segment-of-a-city,70,80,80,261,261,260,260,0,0,1,1,45.749939,45.749939,59.438,59.438,1.233738,1.233738,0.384615385
Manchester Square L.A. County Neighborhood (Current),manchester-square,-118.308984,POINT(33.967165274809105 -118.30898400000005),33.96716527,Manchester Square,manchester-square,1.012641265,segment-of-a-city,2,,,,,,,,,,,,,,,,,
Unincorporated Santa Susana Mountains L.A. County Neighborhood (Current),unincorporated-santa-susana-mountains,-118.6168005,POINT(34.361843886571933 -118.61680047572341),34.36184389,Unincorporated Santa Susana Mountains,unincorporated-santa-susana-mountains,78.10786888,unincorporated-area,1,,,,,,,,,,,,,,,,,
Montebello L.A. County Neighborhood (Current),montebello,-118.1083374,POINT(34.010314998189017 -118.10833743364199),34.010315,Montebello,montebello,8.454300038,standalone-city,2,,,,,,,,,,,,,,,,,
View Park-Windsor Hills L.A. County Neighborhood (Current),view-park-windsor-hills,-118.3485595,POINT(33.995646003043063 -118.34855947912703),33.995646,View Park-Windsor Hills,view-park-windsor-hills,1.841974847,unincorporated-area,166,351,175.5,517,258.5,506,253,0,0,11,5.5,98.257086,49.128543,128.562,64.281,2.829684,1.414842,2.173913043
Bell Gardens L.A. County Neighborhood (Current),bell-gardens,-118.149936,POINT(33.965685999125014 -118.1499360000002),33.965686,Bell Gardens,bell-gardens,2.48028549,standalone-city,19,,,,,,,,,,,,,,,,,
Vermont-Slauson L.A. County Neighborhood (Current),vermont-slauson,-118.2903575,POINT(33.983913999124709 -118.29035750000011),33.983914,Vermont-Slauson,vermont-slauson,1.442452565,segment-of-a-city,65,,,,,,,,,,,,,,,,,
Willowbrook L.A. County Neighborhood (Current),willowbrook,-118.2523125,POINT(33.915710503828592 -118.25231247908229),33.9157105,Willowbrook,willowbrook,3.766360726,unincorporated-area,153,286,143,407,203.5,396,198,0,0,11,5.5,83.036039,41.51802,110.789,55.3945,2.72026,1.36013,2.777777778
Palos Verdes Estates L.A. County Neighborhood (Current),palos-verdes-estates,-118.390122,POINT(33.783316814743465 -118.39012200169401),33.78331681,Palos Verdes Estates,palos-verdes-estates,4.727204079,standalone-city,1328,969,161.5,1555,259.166667,1547,257.833333,1,0.166667,7,1.166667,398.402819,66.40047,549.081,91.5135,8.780958,1.463493,0.452488688
Van Nuys L.A. County Neighborhood (Current),van-nuys,-118.4639545,POINT(34.196505499122246 -118.4639545),34.1965055,Van Nuys,van-nuys,8.990908919,segment-of-a-city,639,513,102.6,965,193,955,191,0,0,10,2,218.167076,43.633415,290.782,58.1564,9.014594,1.802919,1.047120419
Sawtelle L.A. County Neighborhood (Current),sawtelle,-118.4505911,POINT(34.03506728275898 -118.45059109758868),34.03506728,Sawtelle,sawtelle,2.691180945,segment-of-a-city,1044,1388,99.142857,3485,248.928571,3427,244.785714,0,0,58,4.142857,647.152047,46.225146,820.097,58.578357,19.323504,1.38025,1.692442369
Rancho Dominguez L.A. County Neighborhood (Current),rancho-dominguez,-118.2182915,POINT(33.859875999126409 -118.21829150000025),33.859876,Rancho Dominguez,rancho-dominguez,2.666427561,unincorporated-area,26,159,159,263,263,255,255,0,0,8,8,55.285313,55.285313,80.021,80.021,1.678957,1.678957,3.137254902
Compton L.A. County Neighborhood (Current),compton,-118.2218105,POINT(33.893251999125937 -118.2218104930422),33.893252,Compton,compton,10.26041138,standalone-city,345,155,155,202,202,200,200,0,0,2,2,49.904599,49.904599,74.338,74.338,1.514049,1.514049,1
Arlington Heights L.A. County Neighborhood (Current),arlington-heights,-118.3234085,POINT(34.04491049912405 -118.3234085),34.0449105,Arlington Heights,arlington-heights,1.031415235,segment-of-a-city,283,255,127.5,459,229.5,439,219.5,0,0,20,10,96.744111,48.372056,120.488,60.244,2.800158,1.400079,4.555808656
Harvard Heights L.A. County Neighborhood (Current),harvard-heights,-118.307658,POINT(34.045060999124097 -118.307658),34.045061,Harvard Heights,harvard-heights,0.791828822,segment-of-a-city,140,90,90,170,170,164,164,0,0,6,6,48.972213,48.972213,63.405,63.405,1.371632,1.371632,3.658536585
Lomita L.A. County Neighborhood (Current),lomita,-118.317966,POINT(33.791309499127209 -118.31796600000017),33.7913095,Lomita,lomita,1.917182015,standalone-city,430,279,139.5,505,252.5,502,251,0,0,3,1.5,94.829617,47.414808,122.472,61.236,3.160728,1.580364,0.597609562
Encino L.A. County Neighborhood (Current),encino,-118.499515,POINT(34.1562244991227 -118.49951500000012),34.1562245,Encino,encino,9.499707,segment-of-a-city,1228,1308,145.333333,2274,252.666667,2256,250.666667,0,0,18,2,386.884664,42.987185,522.551,58.061222,11.869345,1.318816,0.79787234
West Carson L.A. County Neighborhood (Current),west-carson,-118.2922775,POINT(33.822072500607462 -118.29227748370761),33.8220725,West Carson,west-carson,2.279061382,unincorporated-area,238,,,,,,,,,,,,,,,,,
Carthay L.A. County Neighborhood (Current),carthay,-118.36891,POINT(34.057855624951706 -118.36891),34.05785562,Carthay,carthay,0.504675757,segment-of-a-city,5,,,,,,,,,,,,,,,,,
Harbor Gateway L.A. County Neighborhood (Current),harbor-gateway,-118.295309,POINT(33.868515499126232 -118.29530900000007),33.8685155,Harbor Gateway,harbor-gateway,5.140923125,segment-of-a-city,64,407,135.666667,660,220,642,214,0,0,18,6,125.331021,41.777007,176.779,58.926333,4.493797,1.497932,2.803738318
Jefferson Park L.A. County Neighborhood (Current),jefferson-park,-118.3220585,POINT(34.028211499124154 -118.32205850000005),34.0282115,Jefferson Park,jefferson-park,1.419020098,segment-of-a-city,21,,,,,,,,,,,,,,,,,
West Adams L.A. County Neighborhood (Current),west-adams,-118.3551786,POINT(34.02886149912419 -118.35517858045984),34.0288615,West Adams,west-adams,1.482008194,segment-of-a-city,304,326,163,545,272.5,538,269,0,0,7,3.5,106.846414,53.423207,136.939,68.4695,2.731435,1.365717,1.301115242
Brentwood L.A. County Neighborhood (Current),brentwood,-118.4921885,POINT(34.086240999123547 -118.49218850000007),34.086241,Brentwood,brentwood,15.22370141,segment-of-a-city,871,709,141.8,1248,249.6,1241,248.2,0,0,7,1.4,361.747933,72.349587,472.91,94.582,7.126699,1.42534,0.564061241
Rancho Palos Verdes L.A. County Neighborhood (Current),rancho-palos-verdes,-118.3598075,POINT(33.75869892565828 -118.35980750108605),33.75869893,Rancho Palos Verdes,rancho-palos-verdes,13.39404787,standalone-city,2349,2651,139.526316,4305,226.578947,4247,223.526316,0,0,58,3.052632,1246.522559,65.60645,1744.782,91.830632,31.841035,1.675844,1.365669885
Beverly Crest L.A. County Neighborhood (Current),beverly-crest,-118.423263,POINT(34.106006999123245 -118.42326299999999),34.106007,Beverly Crest,beverly-crest,8.236092999,segment-of-a-city,522,566,113.2,1040,208,1025,205,0,0,15,3,334.451536,66.890307,494.483,98.8966,7.780908,1.556182,1.463414634
Rancho Park L.A. County Neighborhood (Current),rancho-park,-118.423125,POINT(34.034314999124099 -118.42312500000006),34.034315,Rancho Park,rancho-park,0.599121036,segment-of-a-city,169,207,103.5,501,250.5,497,248.5,0,0,4,2,93.171035,46.585518,115.756,57.878,2.614132,1.307066,0.804828974
Palms L.A. County Neighborhood (Current),palms,-118.40903,POINT(34.024597526725373 -118.40902995476588),34.02459753,Palms,palms,1.945359016,segment-of-a-city,1431,1406,100.428571,3690,263.571429,3654,261,0,0,36,2.571429,551.682231,39.405874,686.81,49.057857,19.361123,1.382937,0.985221675
El Segundo L.A. County Neighborhood (Current),el-segundo,-118.4022307,POINT(33.916582999125737 -118.40223073369825),33.916583,El Segundo,el-segundo,5.45900813,standalone-city,261,256,128,544,272,533,266.5,0,0,11,5.5,63.019201,31.5096,78.302,39.151,2.496254,1.248127,2.063789869
Venice L.A. County Neighborhood (Current),venice,-118.4628457,POINT(33.986273217151727 -118.46284569710343),33.98627322,Venice,venice,3.170765841,segment-of-a-city,1094,1071,97.363636,2713,246.636364,2617,237.909091,0,0,96,8.727273,463.734206,42.157655,615.252,55.932,15.78879,1.435345,3.668322507
Tarzana L.A. County Neighborhood (Current),tarzana,-118.544589,POINT(34.156454999122722 -118.54458900000007),34.156455,Tarzana,tarzana,8.790901616,segment-of-a-city,766,581,145.25,963,240.75,957,239.25,0,0,6,1.5,192.509932,48.127483,263.597,65.89925,5.648113,1.412028,0.626959248
Woodland Hills L.A. County Neighborhood (Current),woodland-hills,-118.6152165,POINT(34.159408692550485 -118.61521650000006),34.15940869,Woodland Hills,woodland-hills,14.76830965,segment-of-a-city,1234,1127,161,1835,262.142857,1815,259.285714,0,0,20,2.857143,319.945253,45.706465,441.199,63.028429,10.275521,1.467932,1.101928375
Carson L.A. County Neighborhood (Current),carson,-118.2480095,POINT(33.839519999126665 -118.24800950000022),33.83952,Carson,carson,19.14958849,standalone-city,1267,1663,166.3,2570,257,2541,254.1,1,0.1,28,2.8,551.320555,55.132056,795.946,79.5946,16.112789,1.611279,1.101928375
Harbor City L.A. County Neighborhood (Current),harbor-city,-118.295164,POINT(33.797697296692832 -118.29516400000006),33.7976973,Harbor City,harbor-city,2.581320953,segment-of-a-city,619,510,127.5,854,213.5,848,212,0,0,6,1.5,205.050151,51.262538,293.889,73.47225,6.892577,1.723144,0.70754717
Beverly Grove L.A. County Neighborhood (Current),beverly-grove,-118.376102,POINT(34.076632999123618 -118.376102),34.076633,Beverly Grove,beverly-grove,1.648683133,segment-of-a-city,737,421,84.2,1060,212,1025,205,0,0,35,7,223.858229,44.771646,267.644,53.5288,6.729122,1.345824,3.414634146
Signal Hill L.A. County Neighborhood (Current),signal-hill,-118.1671665,POINT(33.804375999127039 -118.16716650000018),33.804376,Signal Hill,signal-hill,2.223395518,standalone-city,643,631,126.2,1151,230.2,1134,226.8,0,0,17,3.4,306.181324,61.236265,404.833,80.9666,7.426414,1.485283,1.499118166
North Hollywood L.A. County Neighborhood (Current),north-hollywood,-118.3796635,POINT(34.177938499122348 -118.37966349999999),34.1779385,North Hollywood,north-hollywood,5.869115469,segment-of-a-city,2301,2456,129.263158,4233,222.789474,4146,218.210526,1,0.052632,86,4.526316,1148.044405,60.42339,1586.944,83.523368,27.918726,1.469407,2.074288471
Diamond Bar L.A. County Neighborhood (Current),diamond-bar,-117.8157307,POINT(34.000640999124634 -117.81573066877161),34.000641,Diamond Bar,diamond-bar,15.12603229,standalone-city,4910,4616,148.903226,7125,229.83871,7072,228.129032,1,0.032258,52,1.677419,1847.498302,59.596719,2679.531,86.436484,54.191245,1.748105,0.735294118
Toluca Lake L.A. County Neighborhood (Current),toluca-lake,-118.357951,POINT(34.15349309467193 -118.35795100000007),34.15349309,Toluca Lake,toluca-lake,1.217227768,segment-of-a-city,318,361,120.333333,784,261.333333,778,259.333333,0,0,6,2,182.168341,60.72278,236.802,78.934,4.111725,1.370575,0.771208226
Downey L.A. County Neighborhood (Current),downey,-118.130423,POINT(33.937676999125415 -118.13042300000015),33.937677,Downey,downey,12.52947792,standalone-city,2452,2549,159.3125,4077,254.8125,4056,253.5,0,0,21,1.3125,651.439579,40.714974,920.006,57.500375,23.721152,1.482572,0.517751479
Beverly Hills L.A. County Neighborhood (Current),beverly-hills,-118.399534,POINT(34.082544499123699 -118.39953400000016),34.0825445,Beverly Hills,beverly-hills,5.702241332,standalone-city,862,935,85,2202,200.181818,2170,197.272727,0,0,32,2.909091,566.159449,51.469041,768.145,69.831364,14.466714,1.315156,1.474654378
Rolling Hills Estates L.A. County Neighborhood (Current),rolling-hills-estates,-118.3545335,POINT(33.776429999127444 -118.35453350000017),33.77643,Rolling Hills Estates,rolling-hills-estates,3.814348021,standalone-city,557,788,131.333333,1373,228.833333,1371,228.5,0,0,2,0.333333,363.692101,60.61535,489.655,81.609167,8.901837,1.48364,0.14587892
University Park L.A. County Neighborhood (Current),university-park,-118.2828075,POINT(34.028113999124287 -118.28280750000005),34.028114,University Park,university-park,1.167143547,segment-of-a-city,289,256,85.333333,623,207.666667,566,188.666667,0,0,57,19,126.207463,42.069154,165.353,55.117667,4.189101,1.396367,10.07067138
Northridge L.A. County Neighborhood (Current),northridge,-118.527969,POINT(34.238805499121611 -118.52796900000007),34.2388055,Northridge,northridge,9.467487439,segment-of-a-city,231,145,145,242,242,238,238,0,0,4,4,35.379371,35.379371,50.874,50.874,1.582473,1.582473,1.680672269
West Hills L.A. County Neighborhood (Current),west-hills,-118.6353985,POINT(34.207253636931036 -118.63539850000006),34.20725364,West Hills,west-hills,8.528078359,segment-of-a-city,862,1318,164.75,2128,266,2109,263.625,0,0,19,2.375,362.434559,45.30432,513.398,64.17475,11.35756,1.419695,0.900900901
Hermosa Beach L.A. County Neighborhood (Current),hermosa-beach,-118.3971418,POINT(33.864771287924583 -118.39714183223805),33.86477129,Hermosa Beach,hermosa-beach,1.47762686,standalone-city,750,783,97.875,2029,253.625,1999,249.875,0,0,30,3.75,231.497268,28.937159,326.592,40.824,12.540478,1.56756,1.500750375
Industry L.A. County Neighborhood (Current),industry,-117.939621,POINT(34.026835568749277 -117.93962100000014),34.02683557,Industry,industry,12.35035695,standalone-city,50,159,159,222,222,222,222,0,0,0,0,72.279074,72.279074,113.613,113.613,1.863869,1.863869,0
Fairfax L.A. County Neighborhood (Current),fairfax,-118.352858,POINT(34.07893599912363 -118.35285800000005),34.078936,Fairfax,fairfax,1.233964773,segment-of-a-city,350,384,76.8,1051,210.2,1035,207,0,0,16,3.2,242.131465,48.426293,289.76,57.952,6.445048,1.28901,1.54589372
South Gate L.A. County Neighborhood (Current),south-gate,-118.193812,POINT(33.938158499185079 -118.19381199294568),33.9381585,South Gate,south-gate,7.448373115,standalone-city,1536,926,154.333333,1404,234,1393,232.166667,0,0,11,1.833333,251.575824,41.929304,355.157,59.192833,8.420478,1.403413,0.789662599
Norwalk L.A. County Neighborhood (Current),norwalk,-118.076938,POINT(33.907168999125822 -118.07693800000014),33.907169,Norwalk,norwalk,9.763759386,standalone-city,1076,965,160.833333,1521,253.5,1513,252.166667,0,0,8,1.333333,313.469078,52.244846,416.671,69.445167,9.016112,1.502685,0.528750826
Santa Fe Springs L.A. County Neighborhood (Current),santa-fe-springs,-118.06368,POINT(33.928934999496654 -118.06368000000016),33.928935,Santa Fe Springs,santa-fe-springs,8.855451591,standalone-city,265,322,161,505,252.5,494,247,0,0,11,5.5,92.364243,46.182122,128.867,64.4335,3.12781,1.563905,2.226720648
Hawaiian Gardens L.A. County Neighborhood (Current),hawaiian-gardens,-118.072192,POINT(33.830603999126708 -118.07219200000006),33.830604,Hawaiian Gardens,hawaiian-gardens,0.985072536,standalone-city,191,176,176,296,296,295,295,0,0,1,1,77.266374,77.266374,105.787,105.787,1.423125,1.423125,0.338983051
Manhattan Beach L.A. County Neighborhood (Current),manhattan-beach,-118.4009392,POINT(33.88950799912606 -118.40093919800572),33.889508,Manhattan Beach,manhattan-beach,3.970714343,standalone-city,1459,1447,111.307692,3493,268.692308,3465,266.538462,0,0,28,2.153846,375.319213,28.870709,498.839,38.372231,18.534222,1.425709,0.808080808
Veterans Administration L.A. County Neighborhood (Current),veterans-administration,-118.4572585,POINT(34.057383999123985 -118.45725850000031),34.057384,Veterans Administration,veterans-administration,0.911282078,unincorporated-area,2,,,,,,,,,,,,,,,,,
Westwood L.A. County Neighborhood (Current),westwood,-118.4404799,POINT(34.06523499912381 -118.44047994677246),34.065235,Westwood,westwood,3.675777296,segment-of-a-city,545,490,81.666667,1362,227,1334,222.333333,0,0,28,4.666667,291.205996,48.534333,361.561,60.260167,7.61684,1.269473,2.098950525
Westlake Village L.A. County Neighborhood (Current),westlake-village,-118.822912,POINT(34.139191499123029 -118.82291200000014),34.1391915,Westlake Village,westlake-village,5.646421929,standalone-city,33,,,,,,,,,,,,,,,,,
Canoga Park L.A. County Neighborhood (Current),canoga-park,-118.6015195,POINT(34.210854999122013 -118.60151949999999),34.210855,Canoga Park,canoga-park,4.348518125,segment-of-a-city,239,,,,,,,,,,,,,,,,,
West Covina L.A. County Neighborhood (Current),west-covina,-117.9126995,POINT(34.047182499124105 -117.91269950000019),34.0471825,West Covina,west-covina,16.11455892,standalone-city,23,,,,,,,,,,,,,,,,,
Windsor Square L.A. County Neighborhood (Current),windsor-square,-118.319909,POINT(34.069108499123722 -118.31990900000005),34.0691085,Windsor Square,windsor-square,0.683463802,segment-of-a-city,206,234,78,573,191,544,181.333333,0,0,29,9.666667,136.013784,45.337928,171.499,57.166333,3.873449,1.29115,5.330882353
Exposition Park L.A. County Neighborhood (Current),exposition-park,-118.2988755,POINT(34.018262499124305 -118.29887550000007),34.0182625,Exposition Park,exposition-park,1.846790776,segment-of-a-city,342,110,110,204,204,191,191,0,0,13,13,46.46792,46.46792,64.159,64.159,1.379009,1.379009,6.806282723
Historic South-Central L.A. County Neighborhood (Current),historic-south-central,-118.265857,POINT(34.019562499124277 -118.26585700000012),34.0195625,Historic South-Central,historic-south-central,2.553518984,segment-of-a-city,411,447,149,710,236.666667,698,232.666667,0,0,12,4,130.369369,43.456456,185.563,61.854333,4.282146,1.427382,1.719197708
Vermont Square L.A. County Neighborhood (Current),vermont-square,-118.2988075,POINT(34.002062999124533 -118.29880750000001),34.002063,Vermont Square,vermont-square,2.544380157,segment-of-a-city,383,530,132.5,844,211,826,206.5,0,0,18,4.5,188.506668,47.126667,255.549,63.88725,5.508074,1.377018,2.179176755
Valley Village L.A. County Neighborhood (Current),valley-village,-118.396202,POINT(34.163355999122615 -118.39620200000005),34.163356,Valley Village,valley-village,2.085399773,segment-of-a-city,1341,1262,126.2,2498,249.8,2469,246.9,0,0,29,2.9,578.916175,57.891617,768.084,76.8084,12.836326,1.283633,1.174564601
Downtown L.A. County Neighborhood (Current),downtown,-118.2485099,POINT(34.040008613525899 -118.24850990440491),34.04000861,Downtown,downtown,5.83816978,segment-of-a-city,20,,,,,,,,,,,,,,,,,
Sepulveda Basin L.A. County Neighborhood (Current),sepulveda-basin,-118.4923165,POINT(34.17460099912239 -118.49231650000006),34.174601,Sepulveda Basin,sepulveda-basin,3.136558653,segment-of-a-city,40,,,,,,,,,,,,,,,,,
Sun Valley L.A. County Neighborhood (Current),sun-valley,-118.3843172,POINT(34.22661749912173 -118.3843172128845),34.2266175,Sun Valley,sun-valley,9.423924198,segment-of-a-city,519,297,148.5,460,230,456,228,0,0,4,2,126.284498,63.142249,163.316,81.658,2.938813,1.469407,0.877192982
Reseda L.A. County Neighborhood (Current),reseda,-118.540368,POINT(34.203603499122082 -118.540368),34.2036035,Reseda,reseda,5.865490892,segment-of-a-city,579,608,152,959,239.75,944,236,0,0,15,3.75,152.182587,38.045647,212.126,53.0315,5.582947,1.395737,1.588983051
Lake Balboa L.A. County Neighborhood (Current),lake-balboa,-118.504467,POINT(34.203703499122071 -118.50446700000006),34.2037035,Lake Balboa,lake-balboa,3.125854296,segment-of-a-city,294,292,146,465,232.5,463,231.5,0,0,2,1,74.388662,37.194331,102.928,51.464,2.790182,1.395091,0.431965443
Leimert Park L.A. County Neighborhood (Current),leimert-park,-118.3263397,POINT(34.013050516583704 -118.32633970815459),34.01305052,Leimert Park,leimert-park,1.192529974,segment-of-a-city,9,,,,,,,,,,,,,,,,,
Baldwin Hills Crenshaw L.A. County Neighborhood (Current),baldwin-hillscrenshaw,-118.357746,POINT(34.01197027055953 -118.35774600000005),34.01197027,Baldwin Hills/Crenshaw,baldwin-hillscrenshaw,2.883704673,segment-of-a-city,295,133,133,245,245,243,243,0,0,2,2,44.366826,44.366826,57.886,57.886,1.491936,1.491936,0.823045267
San Fernando L.A. County Neighborhood (Current),san-fernando,-118.4359885,POINT(34.288998499121206 -118.43598850000011),34.2889985,San Fernando,san-fernando,2.387760634,standalone-city,380,154,154,219,219,218,218,0,0,1,1,63.278514,63.278514,87.342,87.342,1.52605,1.52605,0.458715596
Sylmar L.A. County Neighborhood (Current),sylmar,-118.4520501,POINT(34.308403858579155 -118.45205006616247),34.30840386,Sylmar,sylmar,12.45638753,segment-of-a-city,1115,1282,142.444444,1901,211.222222,1883,209.222222,0,0,18,2,548.52463,60.947181,798.17,88.685556,13.668531,1.518726,0.955921402
Beverlywood L.A. County Neighborhood (Current),beverlywood,-118.393982,POINT(34.043509999124048 -118.39398199999999),34.04351,Beverlywood,beverlywood,0.794341837,segment-of-a-city,597,1023,127.875,2188,273.5,2169,271.125,0,0,19,2.375,365.44494,45.680618,477.195,59.649375,10.56334,1.320418,0.875979714
West Los Angeles L.A. County Neighborhood (Current),west-los-angeles,-118.4307445,POINT(34.047220499123917 -118.4307445),34.0472205,West Los Angeles,west-los-angeles,1.049573132,segment-of-a-city,316,186,93,464,232,446,223,0,0,18,9,89.782979,44.891489,114.206,57.103,2.568093,1.284047,4.035874439
Cheviot Hills L.A. County Neighborhood (Current),cheviot-hills,-118.4114615,POINT(34.04085349912404 -118.41146150000006),34.0408535,Cheviot Hills,cheviot-hills,1.536433381,segment-of-a-city,809,974,139.142857,1891,270.142857,1879,268.428571,0,0,12,1.714286,332.008577,47.429797,432.371,61.767286,9.209697,1.315671,0.638637573
Elysian Park L.A. County Neighborhood (Current),elysian-park,-118.2374565,POINT(34.081259999123489 -118.23745650000001),34.08126,Elysian Park,elysian-park,1.645084298,segment-of-a-city,79,109,109,223,223,218,218,0,0,5,5,40.914138,40.914138,57.113,57.113,1.502618,1.502618,2.293577982
Chinatown L.A. County Neighborhood (Current),chinatown,-118.2370065,POINT(34.063510499123652 -118.23700649999989),34.0635105,Chinatown,chinatown,0.909367075,segment-of-a-city,105,,,,,,,,,,,,,,,,,
Echo Park L.A. County Neighborhood (Current),echo-park,-118.2590075,POINT(34.079533999123683 -118.2590075),34.079534,Echo Park,echo-park,2.39828121,segment-of-a-city,1940,2279,113.95,4859,242.95,4789,239.45,0,0,70,3.5,798.274815,39.913741,1063.669,53.18345,27.556524,1.377826,1.461683024
Santa Monica L.A. County Neighborhood (Current),santa-monica,-118.4805667,POINT(34.021860499124415 -118.48056671004807),34.0218605,Santa Monica,santa-monica,8.56505645,standalone-city,1682,1328,94.857143,3729,266.357143,3687,263.357143,1,0.071429,41,2.928571,671.998711,47.999908,851.419,60.815643,18.189898,1.299278,1.112015189
Winnetka L.A. County Neighborhood (Current),winnetka,-118.5752195,POINT(34.210459499121988 -118.57521950000014),34.2104595,Winnetka,winnetka,4.777240702,segment-of-a-city,505,378,189,584,292,575,287.5,0,0,9,4.5,81.342005,40.671003,107.681,53.8405,2.678981,1.33949,1.565217391
Sherman Oaks L.A. County Neighborhood (Current),sherman-oaks,-118.441514,POINT(34.149005499122715 -118.441514),34.1490055,Sherman Oaks,sherman-oaks,9.14693779,segment-of-a-city,2328,2322,116.1,4833,241.65,4787,239.35,2,0.1,44,2.2,1031.03522,51.551761,1466.422,73.3211,36.310496,1.815525,0.919156048
Redondo Beach L.A. County Neighborhood (Current),redondo-beach,-118.377101,POINT(33.854633999126435 -118.37710100127826),33.854634,Redondo Beach,redondo-beach,6.245558821,standalone-city,944,785,112.142857,1768,252.571429,1731,247.285714,0,0,37,5.285714,220.639365,31.519909,304.141,43.448714,9.391952,1.341707,2.137492779
Torrance L.A. County Neighborhood (Current),torrance,-118.3517109,POINT(33.833638999126677 -118.35171088115038),33.833639,Torrance,torrance,20.58324002,standalone-city,2437,3168,150.857143,5615,267.380952,5546,264.095238,1,0.047619,68,3.238095,915.854575,43.612123,1202.693,57.271095,30.092956,1.432998,1.226108907
Walnut L.A. County Neighborhood (Current),walnut,-117.860126,POINT(34.033247999124256 -117.86012600000016),34.033248,Walnut,walnut,9.013030619,standalone-city,3533,3528,153.391304,5141,223.521739,5090,221.304348,0,0,51,2.217391,1709.543583,74.327982,2418.777,105.164217,35.201723,1.53051,1.001964637
Hacienda Heights L.A. County Neighborhood (Current),hacienda-heights,-117.9750805,POINT(34.002085506418773 -117.97508050764819),34.00208551,Hacienda Heights,hacienda-heights,11.88705403,unincorporated-area,1,,,,,,,,,,,,,,,,,
Whittier L.A. County Neighborhood (Current),whittier,-118.018911,POINT(33.979441000624007 -118.01891099569201),33.979441,Whittier,whittier,14.74064131,standalone-city,1326,1728,157.090909,2537,230.636364,2520,229.090909,0,0,17,1.545455,985.85539,89.623217,1356.911,123.355545,16.60627,1.509661,0.674603175
South Whittier L.A. County Neighborhood (Current),south-whittier,-118.0280175,POINT(33.936196000947831 -118.0280174858583),33.936196,South Whittier,south-whittier,5.37231812,unincorporated-area,606,335,167.5,470,235,466,233,0,0,4,2,201.991327,100.995664,274.584,137.292,3.18772,1.59386,0.858369099
Griffith Park L.A. County Neighborhood (Current),griffith-park,-118.2971563,POINT(34.136873999122869 -118.29715634932774),34.136874,Griffith Park,griffith-park,5.833521803,segment-of-a-city,31,,,,,,,,,,,,,,,,,
Valley Glen L.A. County Neighborhood (Current),valley-glen,-118.414517,POINT(34.189504499122229 -118.4145170000001),34.1895045,Valley Glen,valley-glen,4.805544471,segment-of-a-city,1506,1452,132,2570,233.636364,2541,231,0,0,29,2.636364,581.72534,52.884122,818.482,74.407455,25.458082,2.314371,1.141282959
Culver City L.A. County Neighborhood (Current),culver-city,-118.4090245,POINT(34.005899499124581 -118.40902450000016),34.0058995,Culver City,culver-city,5.19276111,standalone-city,1177,1105,110.5,2459,245.9,2442,244.2,0,0,17,1.7,391.774708,39.177471,522.352,52.2352,14.382016,1.438202,0.696150696
Hollywood Hills L.A. County Neighborhood (Current),hollywood-hills,-118.33541,POINT(34.128088999122937 -118.33541000000008),34.128089,Hollywood Hills,hollywood-hills,7.047640743,segment-of-a-city,2237,2548,98,5093,195.884615,4964,190.923077,2,0.076923,127,4.884615,1553.609851,59.754225,2040.397,78.476808,42.807273,1.646434,2.558420629
Hollywood L.A. County Neighborhood (Current),hollywood,-118.3355516,POINT(34.094408499999581 -118.33555159977072),34.0944085,Hollywood,hollywood,3.506390221,segment-of-a-city,835,600,66.666667,1612,179.111111,1556,172.888889,0,0,56,6.222222,440.120881,48.90232,540.545,60.060556,11.645936,1.293993,3.598971722
Commerce L.A. County Neighborhood (Current),commerce,-118.1573625,POINT(33.995079230018334 -118.1573625000002),33.99507923,Commerce,commerce,6.58056685,standalone-city,290,,,,,,,,,,,,,,,,,
Silver Lake L.A. County Neighborhood (Current),silver-lake,-118.2677075,POINT(34.094459499123445 -118.2677075),34.0944595,Silver Lake,silver-lake,2.749106009,segment-of-a-city,1866,1377,125.181818,2801,254.636364,2785,253.181818,0,0,16,1.454545,499.309501,45.391773,646.834,58.803091,15.093286,1.372117,0.574506284
East Hollywood L.A. County Neighborhood (Current),east-hollywood,-118.2968085,POINT(34.089109499123481 -118.2968085),34.0891095,East Hollywood,east-hollywood,2.378736378,segment-of-a-city,1459,1792,105.411765,3916,230.352941,3805,223.823529,0,0,111,6.529412,794.642662,46.743686,926.188,57.88675,21.258423,1.328651,2.917214192
Los Feliz L.A. County Neighborhood (Current),los-feliz,-118.2884085,POINT(34.10785849912326 -118.2884085),34.1078585,Los Feliz,los-feliz,2.607955098,segment-of-a-city,3023,3026,116.384615,6738,259.153846,6645,255.576923,1,0.038462,92,3.538462,1283.844455,49.378633,1707.642,65.678538,34.972172,1.345084,1.384499624
Studio City L.A. County Neighborhood (Current),studio-city,-118.3874792,POINT(34.137891999122886 -118.38747919966544),34.137892,Studio City,studio-city,6.307925243,segment-of-a-city,2419,2278,103.545455,5108,232.181818,5028,228.545455,0,0,80,3.636364,1240.078735,56.367215,1662.849,75.584045,32.804651,1.491121,1.591089897
Koreatown L.A. County Neighborhood (Current),koreatown,-118.3049585,POINT(34.064510499123763 -118.3049585),34.0645105,Koreatown,koreatown,2.700483115,segment-of-a-city,408,138,69,317,158.5,295,147.5,0,0,22,11,79.047452,39.523726,102.189,51.0945,2.768281,1.384141,7.457627119
Westlake L.A. County Neighborhood (Current),westlake,-118.272221,POINT(34.062360999123754 -118.27222100000006),34.062361,Westlake,westlake,2.717305535,segment-of-a-city,595,554,79.142857,1119,159.857143,1060,151.428571,1,0.142857,58,8.285714,267.118851,38.159836,348.613,49.801857,9.540969,1.362996,5.471698113
Pico-Union L.A. County Neighborhood (Current),pico-union,-118.2847075,POINT(34.044161499124009 -118.28470750000005),34.0441615,Pico-Union,pico-union,1.669468887,segment-of-a-city,493,604,86.285714,1199,171.285714,1148,164,0,0,51,7.285714,285.752519,40.821788,367.539,52.505571,9.644565,1.377795,4.442508711
Hawthorne L.A. County Neighborhood (Current),hawthorne,-118.346056,POINT(33.914028000717863 -118.34605599620926),33.914028,Hawthorne,hawthorne,6.229634267,standalone-city,755,243,121.5,414,207,410,205,0,0,4,2,51.093611,25.546806,70.316,35.158,2.784846,1.392423,0.975609756
Playa Vista L.A. County Neighborhood (Current),playa-vista,-118.413648,POINT(33.976925499124803 -118.41364800000007),33.9769255,Playa Vista,playa-vista,1.299291765,segment-of-a-city,108,,,,,,,,,,,,,,,,,
Mar Vista L.A. County Neighborhood (Current),mar-vista,-118.4366819,POINT(34.010242173076293 -118.43668192517818),34.01024217,Mar Vista,mar-vista,2.895253856,segment-of-a-city,2597,2586,123.142857,5508,262.285714,5469,260.428571,0,0,39,1.857143,937.809711,44.657605,1270.704,60.509714,29.969704,1.427129,0.713110258
Del Rey L.A. County Neighborhood (Current),del-rey,-118.423993,POINT(33.989292192016777 -118.423993),33.98929219,Del Rey,del-rey,2.452648329,segment-of-a-city,1537,1555,119.615385,3462,266.307692,3428,263.692308,0,0,34,2.615385,537.120138,41.316934,740.595,56.968846,22.507911,1.731378,0.991831972
Vernon L.A. County Neighborhood (Current),vernon,-118.203432,POINT(33.999657999124722 -118.20343200000011),33.999658,Vernon,vernon,5.223802834,standalone-city,40,320,160,472,236,463,231.5,0,0,9,4.5,85.293776,42.646888,142.991,71.4955,4.068432,2.034216,1.943844492
Maywood L.A. County Neighborhood (Current),maywood,-118.187303,POINT(33.988338999124778 -118.18730300000013),33.988339,Maywood,maywood,1.18806819,standalone-city,296,143,143,219,219,219,219,0,0,0,0,37.611169,37.611169,54.363,54.363,1.417003,1.417003,0
Huntington Park L.A. County Neighborhood (Current),huntington-park,-118.214015,POINT(33.978967499124934 -118.2140149952952),33.9789675,Huntington Park,huntington-park,3.034666553,standalone-city,960,513,171,811,270.333333,809,269.666667,1,0.333333,1,0.333333,129.924127,43.308042,180.704,60.234667,3.972166,1.324055,0.123609394
West Hollywood L.A. County Neighborhood (Current),west-hollywood,-118.369613,POINT(34.08721323709856 -118.36961300000019),34.08721324,West Hollywood,west-hollywood,1.887299832,standalone-city,748,1010,67.333333,3077,205.133333,2986,199.066667,0,0,91,6.066667,747.921785,49.861452,912.405,60.827,19.61278,1.307519,3.047555258
Pomona L.A. County Neighborhood (Current),pomona,-117.769942,POINT(34.065723499123862 -117.7699420000001),34.0657235,Pomona,pomona,22.92038585,standalone-city,4710,4132,147.571429,6045,215.892857,5995,214.107143,1,0.035714,49,1.75,1654.808034,59.100287,2390.162,85.362929,45.85239,1.637585,0.81734779
Hollywood Hills West L.A. County Neighborhood (Current),hollywood-hills-west,-118.370258,POINT(34.111071499123213 -118.37025800000006),34.1110715,Hollywood Hills West,hollywood-hills-west,4.874574376,segment-of-a-city,1765,1780,98.888889,3550,197.222222,3495,194.166667,0,0,55,3.055556,1127.027895,62.612661,1538.25,85.458333,34.987972,1.943776,1.573676681
Panorama City L.A. County Neighborhood (Current),panorama-city,-118.4452155,POINT(34.229502999121699 -118.44521550000007),34.229503,Panorama City,panorama-city,3.647995715,segment-of-a-city,122,,,,,,,,,,,,,,,,,
Arleta L.A. County Neighborhood (Current),arleta,-118.4307575,POINT(34.243099999121583 -118.4307575),34.2431,Arleta,arleta,3.096179176,segment-of-a-city,318,491,163.666667,692,230.666667,687,229,0,0,5,1.666667,171.377699,57.1259,219.141,73.047,4.328262,1.442754,0.727802038
Wilmington L.A. County Neighborhood (Current),wilmington,-118.259187,POINT(33.79129350128175 -118.25918700000008),33.7912935,Wilmington,wilmington,9.141292704,segment-of-a-city,706,359,179.5,521,260.5,516,258,0,0,5,2.5,114.173802,57.086901,150.542,75.271,2.628755,1.314377,0.968992248
La Habra Heights L.A. County Neighborhood (Current),la-habra-heights,-117.9556278,POINT(33.96095113872326 -117.95562783562224),33.96095114,La Habra Heights,la-habra-heights,6.227265925,standalone-city,339,,,,,,,,,,,,,,,,,
Rowland Heights L.A. County Neighborhood (Current),rowland-heights,-117.8939913,POINT(33.973574999125063 -117.89399129564529),33.973575,Rowland Heights,rowland-heights,13.18534886,unincorporated-area,1104,621,155.25,944,236,943,235.75,0,0,1,0.25,298.737827,74.684457,412.728,103.182,5.738167,1.434542,0.106044539
San Pedro L.A. County Neighborhood (Current),san-pedro,-118.2850854,POINT(33.743377490636142 -118.28508539395716),33.74337749,San Pedro,san-pedro,12.0587182,segment-of-a-city,2203,2067,137.8,3497,233.133333,3453,230.2,0,0,44,2.933333,926.698941,61.779929,1236.379,82.425267,21.222598,1.41484,1.274254272
Lincoln Heights L.A. County Neighborhood (Current),lincoln-heights,-118.2103055,POINT(34.070410499123732 -118.2103055),34.0704105,Lincoln Heights,lincoln-heights,2.510553937,segment-of-a-city,2,,,,,,,,,,,,,,,,,
East Los Angeles L.A. County Neighborhood (Current),east-los-angeles,-118.1596384,POINT(34.035168709861011 -118.1596383526979),34.03516871,East Los Angeles,east-los-angeles,7.465964364,unincorporated-area,754,801,133.5,1219,203.166667,1210,201.666667,0,0,9,1.5,193.543611,32.257268,288.279,48.0465,8.70849,1.451415,0.743801653
